{
  "cities": [
    {
      "name": "SANTA FE DE BOGOTÁ",
      "ele": 2553.92,
      "lat": 4.64730178409559,
      "lon": -74.0962676933192,
      "stations": [
        {
          "code": 802223,
          "name": "GUAYMARAL",
          "ele": 2557.3,
          "lat": 4.812,
          "lon": -74.065
        },
        {
          "code": 21205012,
          "name": "UNIV NACIONAL AUTOMATICA [21205012]",
          "ele": 2556.0,
          "lat": 4.638083333333,
          "lon": -74.089083333333
        },
        {
          "code": 21205791,
          "name": "APTO EL DORADO AUTOMATICA [21205791]",
          "ele": 2547.0,
          "lat": 4.705583333333,
          "lon": -74.150666666667
        },
        {
          "code": 21206960,
          "name": "IDEAM BOGOTA AUTOMATICA [21206960]",
          "ele": 2646.0,
          "lat": 4.6,
          "lon": -74.066666666667
        },
        {
          "code": 21206990,
          "name": "TIBAITATA AUTOMATICA [21206990]",
          "ele": 2543.0,
          "lat": 4.691416666667,
          "lon": -74.209
        },
        {
          "code": 21206600,
          "name": "NUEVA GENERACION AUTOMATICA[21206600]",
          "ele": 2590.0,
          "lat": 4.782222222222,
          "lon": -74.094333333333
        },
        {
          "code": 802220,
          "name": "ELDORADO INTL",
          "ele": 2548.4,
          "lat": 4.702,
          "lon": -74.147
        }
      ]
    },
    {
      "name": "BARRANQUILLA",
      "ele": 84.87,
      "lat": 10.976521601973,
      "lon": -74.810073845931,
      "stations": [
        {
          "code": 800280,
          "name": "ERNESTO CORTISSOZ",
          "ele": 29.9,
          "lat": 10.89,
          "lon": -74.781
        },
        {
          "code": 29045190,
          "name": "A.E.CORTISSOZ AUTOM   [29045190]",
          "ele": 14.0,
          "lat": 10.917777777778,
          "lon": -74.779722222222
        },
        {
          "code": 29045000,
          "name": "SABANALARGA AUTOMATICA [29045000]",
          "ele": 100.0,
          "lat": 10.636722222222,
          "lon": -74.918888888889
        },
        {
          "code": 29047000,
          "name": "TEBSA BQUILLA AUTOMATICA [29047000]",
          "ele": 6.0,
          "lat": 10.936638888889,
          "lon": -74.759888888889
        }
      ]
    },
    {
      "name": "CARTAGENA",
      "ele": 1.71,
      "lat": 10.4141848285285,
      "lon": -75.4934,
      "stations": [
        {
          "code": 800220,
          "name": "RAFAEL NUNEZ",
          "ele": 1.2,
          "lat": 10.442,
          "lon": -75.513
        },
        {
          "code": 29035000,
          "name": "SINCERIN [29035000]",
          "ele": 10.0,
          "lat": 10.142583333333,
          "lon": -75.278277777778
        },
        {
          "code": 14015020,
          "name": "APTO RAFAEL NUNEZ [14015020]",
          "ele": 2.0,
          "lat": 10.44725,
          "lon": -75.516027777778
        },
        {
          "code": 14019030,
          "name": "ESC NAVAL CIOH AUTOM [14019030]",
          "ele": 1.0,
          "lat": 10.390563888889,
          "lon": -75.533830555556
        },
        {
          "code": 29035200,
          "name": "REPELON AUTOM   [29035200]",
          "ele": 10.0,
          "lat": 10.49,
          "lon": -75.126944444444
        }
      ]
    },
    {
      "name": "LETICIA",
      "ele": 144.09,
      "lat": -3.9867,
      "lon": -69.9470748911655,
      "stations": [
        {
          "code": 824110,
          "name": "TABATINGA",
          "ele": 85.0,
          "lat": -4.256,
          "lon": -69.936
        },
        {
          "code": 803980,
          "name": "ALFREDO VASQUEZ COBO",
          "ele": 84.4,
          "lat": -4.193,
          "lon": -69.943
        },
        {
          "code": 48015010,
          "name": "A VASQUEZ COBO [48015010]",
          "ele": 84.0,
          "lat": -4.193861111111,
          "lon": -69.940916666667
        }
      ]
    },
    {
      "name": "RIOHACHA",
      "ele": 10.0,
      "lat": 11.5438439676894,
      "lon": -72.9114713534895,
      "stations": [
        {
          "code": 800280,
          "name": "ERNESTO CORTISSOZ",
          "ele": 29.9,
          "lat": 10.89,
          "lon": -74.781
        },
        {
          "code": 29065130,
          "name": "LA GRAN VIA AUTOMATICA [29065130]",
          "ele": 30.0,
          "lat": 10.85,
          "lon": -74.133333333333
        },
        {
          "code": 28025130,
          "name": "LA LOMA CARBONES DEL CESAR AUTOMATICA [28025130]",
          "ele": 60.0,
          "lat": 9.640611111111,
          "lon": -73.523944444444
        },
        {
          "code": 13035501,
          "name": "APTO LOS GARZONES AUTOM [13035501]",
          "ele": 20.0,
          "lat": 8.825833333333,
          "lon": -75.825138888889
        },
        {
          "code": 800440,
          "name": "COROZAL/LAS BRUJAS",
          "ele": 81.0,
          "lat": 9.333,
          "lon": -75.283
        },
        {
          "code": 15065180,
          "name": "APTO ALM. PADILLA - AUTOM [15065180]",
          "ele": 4.0,
          "lat": 11.529611111111,
          "lon": -72.917666666667
        },
        {
          "code": 29015000,
          "name": "EL GUAMO AUTOM  [29015000]",
          "ele": 75.0,
          "lat": 10.064444444444,
          "lon": -74.852222222222
        },
        {
          "code": 15015120,
          "name": "UNIV TECNOLOGICA DEL MAGDALENA AUTOMATICA [15015120]",
          "ele": 7.0,
          "lat": 11.223055555556,
          "lon": -74.185916666667
        },
        {
          "code": 12015100,
          "name": "PISTA INDIRA AUTOM  [12015100]",
          "ele": 15.0,
          "lat": 7.94075,
          "lon": -76.696166666667
        },
        {
          "code": 25025340,
          "name": "SAN MARCOS AUTOMATICA [25025340]",
          "ele": 31.0,
          "lat": 8.596833333333,
          "lon": -75.142694444444
        },
        {
          "code": 15075501,
          "name": "APTO PTO BOLIVAR AUTO [15075501]",
          "ele": 10.0,
          "lat": 12.224305555556,
          "lon": -71.982888888889
        },
        {
          "code": 29045190,
          "name": "A.E.CORTISSOZ AUTOM   [29045190]",
          "ele": 14.0,
          "lat": 10.917777777778,
          "lon": -74.779722222222
        },
        {
          "code": 800630,
          "name": "LOS GARZONES",
          "ele": 11.0,
          "lat": 8.824,
          "lon": -75.826
        },
        {
          "code": 29035000,
          "name": "SINCERIN [29035000]",
          "ele": 10.0,
          "lat": 10.142583333333,
          "lon": -75.278277777778
        },
        {
          "code": 12015110,
          "name": "CHIGORODO AUTOM   [12015110]",
          "ele": 44.0,
          "lat": 7.671138888889,
          "lon": -76.694055555556
        },
        {
          "code": 15075150,
          "name": "PAICI AUTOMATICA [15075150]",
          "ele": 45.0,
          "lat": 11.594944444444,
          "lon": -72.32575
        },
        {
          "code": 15065190,
          "name": "MONGUI AUTOMATICA [15065190]",
          "ele": 60.0,
          "lat": 11.226777777778,
          "lon": -72.820638888889
        },
        {
          "code": 25025002,
          "name": "LOS ALAMOS AUTOM [25025002]",
          "ele": 25.0,
          "lat": 9.304055555556,
          "lon": -74.273638888889
        },
        {
          "code": 15065501,
          "name": "MINA LA CERREJON - AUTOM [15065501]",
          "ele": 80.0,
          "lat": 11.137583333333,
          "lon": -72.615944444444
        },
        {
          "code": 800350,
          "name": "ALMIRANTE PADILLA",
          "ele": 13.1,
          "lat": 11.526,
          "lon": -72.926
        },
        {
          "code": 800840,
          "name": "ANTONIO ROLDAN BETANCOURT",
          "ele": 14.0,
          "lat": 7.812,
          "lon": -76.716
        },
        {
          "code": 13095010,
          "name": "COVEÑAS AUTOMATICA[13095010]",
          "ele": 1.0,
          "lat": 9.383333333333,
          "lon": -75.666666666667
        },
        {
          "code": 13085050,
          "name": "LORICA  ITA AUTOMATICA [13085050]",
          "ele": 30.0,
          "lat": 9.252722222222,
          "lon": -75.844416666667
        },
        {
          "code": 25017010,
          "name": "MONTELIBANO AUTOMATICA [25017010]",
          "ele": 40.0,
          "lat": 7.987972222222,
          "lon": -75.417333333333
        },
        {
          "code": 26247020,
          "name": "LA COQUERA AUTOM  [26247020]",
          "ele": 49.0,
          "lat": 7.962138888889,
          "lon": -75.196
        },
        {
          "code": 29045000,
          "name": "SABANALARGA AUTOMATICA [29045000]",
          "ele": 100.0,
          "lat": 10.636722222222,
          "lon": -74.918888888889
        },
        {
          "code": 29065000,
          "name": "MEDIA LUNA AUTOM [29065000]",
          "ele": 20.0,
          "lat": 10.510027777778,
          "lon": -74.506666666667
        },
        {
          "code": 29035200,
          "name": "REPELON AUTOM   [29035200]",
          "ele": 10.0,
          "lat": 10.49,
          "lon": -75.126944444444
        },
        {
          "code": 15067220,
          "name": "PTE CARRETERA AUTOM [15067220]",
          "ele": 7.0,
          "lat": 11.510972222222,
          "lon": -72.855944444444
        },
        {
          "code": 25027200,
          "name": "LAS VARAS AUTOM  [25027200]",
          "ele": 40.0,
          "lat": 8.387416666667,
          "lon": -74.563166666667
        },
        {
          "code": 25027020,
          "name": "EL BANCO AUTOMATICA[25027020]",
          "ele": 29.0,
          "lat": 8.992527777778,
          "lon": -73.969444444444
        },
        {
          "code": 15067050,
          "name": "CUESTECITAS AUTOMATICA [15067050]",
          "ele": 76.0,
          "lat": 11.180333333333,
          "lon": -72.553444444444
        },
        {
          "code": 29047070,
          "name": "SAN PEDRITO AUTOMATICA[29047070]",
          "ele": 8.0,
          "lat": 10.268222222222,
          "lon": -74.907861111111
        },
        {
          "code": 15065010,
          "name": "APTO ALM. PADILLA [15065010]",
          "ele": 4.0,
          "lat": 11.529611111111,
          "lon": -72.917666666667
        },
        {
          "code": 29047000,
          "name": "TEBSA BQUILLA AUTOMATICA [29047000]",
          "ele": 6.0,
          "lat": 10.936638888889,
          "lon": -74.759888888889
        },
        {
          "code": 27037010,
          "name": "LA ESPERANZA NECHI  [27037010]",
          "ele": 33.0,
          "lat": 8.030111111111,
          "lon": -74.785555555556
        },
        {
          "code": 13067020,
          "name": "MONTERIA  AUTOMATICA [13067020]",
          "ele": 15.0,
          "lat": 8.751611111111,
          "lon": -75.892416666667
        }
      ]
    },
    {
      "name": "PUERTO CARREÑO",
      "ele": 53.72,
      "lat": 6.18503150761576,
      "lon": -67.4984208441818,
      "stations": [
        {
          "code": 800990,
          "name": "SANTIAGO PEREZ",
          "ele": 128.0,
          "lat": 7.069,
          "lon": -70.737
        },
        {
          "code": 801390,
          "name": "PUERTO CARRENO",
          "ele": 53.9,
          "lat": 6.185,
          "lon": -67.493
        },
        {
          "code": 37055010,
          "name": "APTO ARAUCA [37055010]",
          "ele": 128.0,
          "lat": 7.069444444444,
          "lon": -70.738055555556
        },
        {
          "code": 804570,
          "name": "CASIQUE ARAMARE",
          "ele": 74.7,
          "lat": 5.62,
          "lon": -67.606
        }
      ]
    },
    {
      "name": "CÚCUTA",
      "ele": 292.79,
      "lat": 7.90247689761443,
      "lon": -72.4978942798224,
      "stations": [
        {
          "code": 800970,
          "name": "CAMILO DAZA",
          "ele": 334.1,
          "lat": 7.928,
          "lon": -72.512
        },
        {
          "code": 803540,
          "name": "FLORENCIA/CAPITOLIO",
          "ele": 244.0,
          "lat": 1.6,
          "lon": -75.533
        },
        {
          "code": 16015110,
          "name": "UNIV FRANCISO DE PAULA AUTOMATICA [16015110]",
          "ele": 311.0,
          "lat": 7.898777777778,
          "lon": -72.487166666667
        },
        {
          "code": 26015030,
          "name": "PNN PURACE AUTOM  [26015030]",
          "ele": 368.0,
          "lat": 2.356848888889,
          "lon": -76.403543888889
        },
        {
          "code": 29045150,
          "name": "SAIZA AUTOMATICA [29045150]",
          "ele": 287.0,
          "lat": 7.746027777778,
          "lon": -76.4325
        },
        {
          "code": 21235030,
          "name": "UNIV DE CUNDINAMARCA  AUTOMATICA [21235030]",
          "ele": 309.0,
          "lat": 4.305333333333,
          "lon": -74.808111111111
        },
        {
          "code": 21137050,
          "name": "ANGOSTURA RIO   [21137050]",
          "ele": 345.0,
          "lat": 3.443194444444,
          "lon": -75.118805555556
        },
        {
          "code": 802190,
          "name": "GIRARDOT/SANTIAGO VILLA",
          "ele": 286.0,
          "lat": 4.283,
          "lon": -74.8
        },
        {
          "code": 26055100,
          "name": "FARALLONES AUTOM   [26055100]",
          "ele": 227.0,
          "lat": 3.416055555556,
          "lon": -76.6515
        },
        {
          "code": 801005,
          "name": "MELGAR AB",
          "ele": 313.3,
          "lat": 4.216,
          "lon": -74.635
        },
        {
          "code": 21255160,
          "name": "HDA PAJONALES   [21255160]",
          "ele": 277.0,
          "lat": 4.760722222222,
          "lon": -74.83425
        },
        {
          "code": 16015501,
          "name": "APTO CAMILO DAZA AUTOM [16015501]",
          "ele": 313.0,
          "lat": 7.931611111111,
          "lon": -72.51125
        },
        {
          "code": 52077010,
          "name": "PTE PUSMEO AUTOM  [52077010]",
          "ele": 380.0,
          "lat": 1.624055555556,
          "lon": -77.478916666667
        },
        {
          "code": 44035050,
          "name": "MACAGUAL AUTOMATICA [44035050]",
          "ele": 280.0,
          "lat": 1.499722222222,
          "lon": -75.661
        },
        {
          "code": 21137010,
          "name": "PURIFICACION AUTOM   [21137010]",
          "ele": 306.0,
          "lat": 3.849527777778,
          "lon": -74.935777777778
        },
        {
          "code": 21237020,
          "name": "ARRANCAPLUMAS    [21237020]",
          "ele": 222.0,
          "lat": 5.202416666667,
          "lon": -74.727611111111
        },
        {
          "code": 35217060,
          "name": "PLAYON EL   [35217060]",
          "ele": 271.0,
          "lat": 5.5405,
          "lon": -72.231722222222
        }
      ]
    },
    {
      "name": "BUCARAMANGA",
      "ele": 941.45,
      "lat": 7.10514174981263,
      "lon": -73.1169967580292,
      "stations": [
        {
          "code": 802227,
          "name": "SANTA ANA",
          "ele": 908.0,
          "lat": 4.758,
          "lon": -75.956
        },
        {
          "code": 51025080,
          "name": "ALTAQUER AUTOMATICA [51025080]",
          "ele": 1010.0,
          "lat": 1.248333333333,
          "lon": -78.0925
        },
        {
          "code": 26085170,
          "name": "BASE AEREA MFS  [26085170]",
          "ele": 975.0,
          "lat": 3.4545,
          "lon": -76.499722222222
        },
        {
          "code": 23065180,
          "name": "VILLETA AUTOM [23065180]",
          "ele": 878.0,
          "lat": 5.016861111111,
          "lon": -74.470972222222
        },
        {
          "code": 698704,
          "name": "AFWA ASSIGNED",
          "ele": 895.0,
          "lat": 4.217,
          "lon": -74.633
        },
        {
          "code": 802140,
          "name": "PERALES",
          "ele": 949.1,
          "lat": 4.422,
          "lon": -75.133
        },
        {
          "code": 23195230,
          "name": "NEOMUNDO AUTOMATICA [23195230]",
          "ele": 970.0,
          "lat": 7.102611111111,
          "lon": -73.107305555556
        },
        {
          "code": 26075150,
          "name": "A.A.BONILLA AUTOM   [26075150]",
          "ele": 961.0,
          "lat": 3.532991666667,
          "lon": -76.3825
        },
        {
          "code": 23105070,
          "name": "MACEO AUTOMATICA (23105070)",
          "ele": 980.0,
          "lat": 6.571638888889,
          "lon": -74.794722222222
        },
        {
          "code": 26055120,
          "name": "UNIV DEL VALLE  [26055120]",
          "ele": 996.0,
          "lat": 3.378,
          "lon": -76.533888888889
        },
        {
          "code": 26127040,
          "name": "CARTAGO    [26127040]",
          "ele": 937.0,
          "lat": 4.757611111111,
          "lon": -75.89925
        },
        {
          "code": 23105060,
          "name": "VEGACHI AUTOM   [23105060]",
          "ele": 990.0,
          "lat": 6.774111111111,
          "lon": -74.796527777778
        },
        {
          "code": 802590,
          "name": "ALFONSO BONILLA ARAGON INTL",
          "ele": 963.8,
          "lat": 3.543,
          "lon": -76.382
        },
        {
          "code": 26105250,
          "name": "ZARAGOZA AUTOM   [26105250]",
          "ele": 943.0,
          "lat": 4.689777777778,
          "lon": -75.925194444444
        },
        {
          "code": 26177030,
          "name": "LA VIRGINIA AUTOM  [26177030]",
          "ele": 922.0,
          "lat": 4.8925,
          "lon": -75.882694444444
        }
      ]
    },
    {
      "name": "ARMENIA",
      "ele": 1390.23,
      "lat": 4.52924357940428,
      "lon": -75.6995544367078,
      "stations": [
        {
          "code": 35085070,
          "name": "STA MARIA AUTOM [35085070]",
          "ele": 1300.0,
          "lat": 4.84125,
          "lon": -73.256694444444
        },
        {
          "code": 21215180,
          "name": "BATALLON ROOKE   [21215180]",
          "ele": 1323.0,
          "lat": 4.418388888889,
          "lon": -75.248666666667
        },
        {
          "code": 27015330,
          "name": "OLAYA HERRERA - AUTOM (27015330)",
          "ele": 1490.0,
          "lat": 6.220611111111,
          "lon": -75.588980555556
        },
        {
          "code": 800770,
          "name": "OCANA/AGUAS CLARAS",
          "ele": 1435.0,
          "lat": 8.317,
          "lon": -73.367
        },
        {
          "code": 802100,
          "name": "MATECANA",
          "ele": 1346.0,
          "lat": 4.813,
          "lon": -75.74
        },
        {
          "code": 26125290,
          "name": "ARMENIA AUTOM   [26125290]",
          "ele": 1485.0,
          "lat": 4.531583333333,
          "lon": -75.690694444444
        },
        {
          "code": 52035040,
          "name": "VIENTO LIBRE AUTOM  [52035040]",
          "ele": 1400.0,
          "lat": 1.6185,
          "lon": -77.343611111111
        },
        {
          "code": 26125710,
          "name": "APTO MATECAÑA AUTOM [26125710]",
          "ele": 1342.0,
          "lat": 4.812675,
          "lon": -75.739519444444
        },
        {
          "code": 23195190,
          "name": "SAN ANTONIO SANTANDER AUTOMATICA [23195190]",
          "ele": 1480.0,
          "lat": 7.099527777778,
          "lon": -73.066194444444
        },
        {
          "code": 27015310,
          "name": "METROMEDELLIN    [27015310]",
          "ele": 1440.0,
          "lat": 6.32975,
          "lon": -75.552111111111
        },
        {
          "code": 16027300,
          "name": "PTE CAPIRA AUTOMATICA [16027300]",
          "ele": 1320.0,
          "lat": 7.537194444444,
          "lon": -72.771138888889
        },
        {
          "code": 35085060,
          "name": "ZETAQUIRA AUTOMATICA [35085060]",
          "ele": 1436.0,
          "lat": 5.294944444444,
          "lon": -73.169944444444
        },
        {
          "code": 21217180,
          "name": "MONTEZUMA [21217180]",
          "ele": 1450.0,
          "lat": 4.482055555556,
          "lon": -75.286055555556
        }
      ]
    },
    {
      "name": "VILLAVICENCIO",
      "ele": 488.77,
      "lat": 4.15730725820001,
      "lon": -73.6374282767513,
      "stations": [
        {
          "code": 802340,
          "name": "VANGUARDIA",
          "ele": 424.9,
          "lat": 4.168,
          "lon": -73.614
        },
        {
          "code": 26225060,
          "name": "HDA COTOVE AUTOM  [26225060]",
          "ele": 534.0,
          "lat": 6.533916666667,
          "lon": -75.827333333333
        },
        {
          "code": 803150,
          "name": "BENITO SALAS",
          "ele": 446.2,
          "lat": 2.95,
          "lon": -75.294
        },
        {
          "code": 21185090,
          "name": "NATAIMA AUTOM   [21185090]",
          "ele": 393.0,
          "lat": 4.188138888889,
          "lon": -74.960472222222
        },
        {
          "code": 35037100,
          "name": "PTE ABADIA AUTOMATICA [35037100]",
          "ele": 523.0,
          "lat": 4.235333333333,
          "lon": -73.635361111111
        },
        {
          "code": 22025040,
          "name": "EL DIABLO AUTOM  [22025040]",
          "ele": 495.0,
          "lat": 2.977722222222,
          "lon": -76.063833333333
        },
        {
          "code": 21115020,
          "name": "APTO BENITO SALAS [21115020]",
          "ele": 439.0,
          "lat": 2.94875,
          "lon": -75.293055555556
        },
        {
          "code": 21115010,
          "name": "DESIERTO LA TATACOA AUTOMATICA [21115010]",
          "ele": 459.0,
          "lat": 3.234472222222,
          "lon": -75.168194444444
        },
        {
          "code": 35035100,
          "name": "ICA VILLAVICENCIO AUTOMATICA [35035100]",
          "ele": 444.0,
          "lat": 4.137388888889,
          "lon": -73.625
        },
        {
          "code": 804470,
          "name": "SAN ANTONIO DEL TACHIRA",
          "ele": 399.9,
          "lat": 7.841,
          "lon": -72.44
        },
        {
          "code": 801540,
          "name": "MARIQUITA",
          "ele": 467.0,
          "lat": 5.217,
          "lon": -74.883
        },
        {
          "code": 16017030,
          "name": "LA UCHEMA AUTOMATICA [16017030]",
          "ele": 520.0,
          "lat": 7.694222222222,
          "lon": -72.474
        },
        {
          "code": 21097070,
          "name": "PTE SANTANDER AUTOM [21097070]",
          "ele": 431.0,
          "lat": 2.942611111111,
          "lon": -75.308527777778
        },
        {
          "code": 21087080,
          "name": "HDA VENECIA AUTOMATICA [21087080]",
          "ele": 575.0,
          "lat": 2.643805555556,
          "lon": -75.544305555556
        }
      ]
    },
    {
      "name": "PEREIRA",
      "ele": 1403.41,
      "lat": 4.80875073958159,
      "lon": -75.6927413874063,
      "stations": [
        {
          "code": 21215180,
          "name": "BATALLON ROOKE   [21215180]",
          "ele": 1323.0,
          "lat": 4.418388888889,
          "lon": -75.248666666667
        },
        {
          "code": 27015330,
          "name": "OLAYA HERRERA - AUTOM (27015330)",
          "ele": 1490.0,
          "lat": 6.220611111111,
          "lon": -75.588980555556
        },
        {
          "code": 800770,
          "name": "OCANA/AGUAS CLARAS",
          "ele": 1435.0,
          "lat": 8.317,
          "lon": -73.367
        },
        {
          "code": 802100,
          "name": "MATECANA",
          "ele": 1346.0,
          "lat": 4.813,
          "lon": -75.74
        },
        {
          "code": 26125290,
          "name": "ARMENIA AUTOM   [26125290]",
          "ele": 1485.0,
          "lat": 4.531583333333,
          "lon": -75.690694444444
        },
        {
          "code": 52035040,
          "name": "VIENTO LIBRE AUTOM  [52035040]",
          "ele": 1400.0,
          "lat": 1.6185,
          "lon": -77.343611111111
        },
        {
          "code": 26125710,
          "name": "APTO MATECAÑA AUTOM [26125710]",
          "ele": 1342.0,
          "lat": 4.812675,
          "lon": -75.739519444444
        },
        {
          "code": 23195190,
          "name": "SAN ANTONIO SANTANDER AUTOMATICA [23195190]",
          "ele": 1480.0,
          "lat": 7.099527777778,
          "lon": -73.066194444444
        },
        {
          "code": 27015310,
          "name": "METROMEDELLIN    [27015310]",
          "ele": 1440.0,
          "lat": 6.32975,
          "lon": -75.552111111111
        },
        {
          "code": 16027300,
          "name": "PTE CAPIRA AUTOMATICA [16027300]",
          "ele": 1320.0,
          "lat": 7.537194444444,
          "lon": -72.771138888889
        },
        {
          "code": 35085060,
          "name": "ZETAQUIRA AUTOMATICA [35085060]",
          "ele": 1436.0,
          "lat": 5.294944444444,
          "lon": -73.169944444444
        },
        {
          "code": 21217180,
          "name": "MONTEZUMA [21217180]",
          "ele": 1450.0,
          "lat": 4.482055555556,
          "lon": -75.286055555556
        }
      ]
    },
    {
      "name": "IBAGUÉ",
      "ele": 1081.15,
      "lat": 4.43642770342414,
      "lon": -75.1916503839093,
      "stations": [
        {
          "code": 51025080,
          "name": "ALTAQUER AUTOMATICA [51025080]",
          "ele": 1010.0,
          "lat": 1.248333333333,
          "lon": -78.0925
        },
        {
          "code": 23065190,
          "name": "QDA NEGRA AUTOMATICA [23065190]",
          "ele": 1107.0,
          "lat": 5.137611111111,
          "lon": -74.48125
        },
        {
          "code": 26255030,
          "name": "STA ISABEL VALDIVIA  [26255030]",
          "ele": 1132.0,
          "lat": 7.157277777778,
          "lon": -75.442222222222
        },
        {
          "code": 26055120,
          "name": "UNIV DEL VALLE  [26055120]",
          "ele": 996.0,
          "lat": 3.378,
          "lon": -76.533888888889
        },
        {
          "code": 24055070,
          "name": "SAN  VICENTE DE CHUCURI AUTOMATICA [24055070]",
          "ele": 1073.0,
          "lat": 6.823388888889,
          "lon": -73.472055555556
        },
        {
          "code": 23105060,
          "name": "VEGACHI AUTOM   [23105060]",
          "ele": 990.0,
          "lat": 6.774111111111,
          "lon": -74.796527777778
        },
        {
          "code": 21257120,
          "name": "PTE GATO NEGRO AUTOMATICA [21257120]",
          "ele": 1135.0,
          "lat": 4.940194444444,
          "lon": -75.089805555556
        },
        {
          "code": 21057050,
          "name": "VEGA EL SALADO AUTOMATICA[21057050]",
          "ele": 1150.0,
          "lat": 2.331444444444,
          "lon": -75.942166666667
        },
        {
          "code": 21017040,
          "name": "SALADO BLANCO AUTOMATICA [21017040]",
          "ele": 1070.0,
          "lat": 1.988111111111,
          "lon": -76.012027777778
        }
      ]
    },
    {
      "name": "NEIVA",
      "ele": 444.86,
      "lat": 2.92287003097258,
      "lon": -75.2795181206766,
      "stations": [
        {
          "code": 802340,
          "name": "VANGUARDIA",
          "ele": 424.9,
          "lat": 4.168,
          "lon": -73.614
        },
        {
          "code": 26225060,
          "name": "HDA COTOVE AUTOM  [26225060]",
          "ele": 534.0,
          "lat": 6.533916666667,
          "lon": -75.827333333333
        },
        {
          "code": 803150,
          "name": "BENITO SALAS",
          "ele": 446.2,
          "lat": 2.95,
          "lon": -75.294
        },
        {
          "code": 26015030,
          "name": "PNN PURACE AUTOM  [26015030]",
          "ele": 368.0,
          "lat": 2.356848888889,
          "lon": -76.403543888889
        },
        {
          "code": 21185090,
          "name": "NATAIMA AUTOM   [21185090]",
          "ele": 393.0,
          "lat": 4.188138888889,
          "lon": -74.960472222222
        },
        {
          "code": 21137050,
          "name": "ANGOSTURA RIO   [21137050]",
          "ele": 345.0,
          "lat": 3.443194444444,
          "lon": -75.118805555556
        },
        {
          "code": 35037100,
          "name": "PTE ABADIA AUTOMATICA [35037100]",
          "ele": 523.0,
          "lat": 4.235333333333,
          "lon": -73.635361111111
        },
        {
          "code": 22025040,
          "name": "EL DIABLO AUTOM  [22025040]",
          "ele": 495.0,
          "lat": 2.977722222222,
          "lon": -76.063833333333
        },
        {
          "code": 21115020,
          "name": "APTO BENITO SALAS [21115020]",
          "ele": 439.0,
          "lat": 2.94875,
          "lon": -75.293055555556
        },
        {
          "code": 21115010,
          "name": "DESIERTO LA TATACOA AUTOMATICA [21115010]",
          "ele": 459.0,
          "lat": 3.234472222222,
          "lon": -75.168194444444
        },
        {
          "code": 35035100,
          "name": "ICA VILLAVICENCIO AUTOMATICA [35035100]",
          "ele": 444.0,
          "lat": 4.137388888889,
          "lon": -73.625
        },
        {
          "code": 804470,
          "name": "SAN ANTONIO DEL TACHIRA",
          "ele": 399.9,
          "lat": 7.841,
          "lon": -72.44
        },
        {
          "code": 801540,
          "name": "MARIQUITA",
          "ele": 467.0,
          "lat": 5.217,
          "lon": -74.883
        },
        {
          "code": 52077010,
          "name": "PTE PUSMEO AUTOM  [52077010]",
          "ele": 380.0,
          "lat": 1.624055555556,
          "lon": -77.478916666667
        },
        {
          "code": 16017030,
          "name": "LA UCHEMA AUTOMATICA [16017030]",
          "ele": 520.0,
          "lat": 7.694222222222,
          "lon": -72.474
        },
        {
          "code": 21097070,
          "name": "PTE SANTANDER AUTOM [21097070]",
          "ele": 431.0,
          "lat": 2.942611111111,
          "lon": -75.308527777778
        }
      ]
    },
    {
      "name": "SAN JOSÉ DEL GUAVIARE",
      "ele": 184.75,
      "lat": 2.55345117149258,
      "lon": -72.6408996512117,
      "stations": [
        {
          "code": 803610,
          "name": "FABIO ALBERTO LEON BENTLEY",
          "ele": 207.3,
          "lat": 1.254,
          "lon": -70.234
        },
        {
          "code": 803220,
          "name": "JORGE E GONZALEZ TORRES",
          "ele": 184.4,
          "lat": 2.58,
          "lon": -72.639
        },
        {
          "code": 803720,
          "name": "TRES DE MAYO",
          "ele": 248.4,
          "lat": 0.505,
          "lon": -76.501
        },
        {
          "code": 47035030,
          "name": "PNN LA PAYA AUTOMATICA [47035030]",
          "ele": 194.0,
          "lat": 0.173722222222,
          "lon": -74.898138888889
        },
        {
          "code": 690186,
          "name": "SAN JOSE DEL GUAVIA",
          "ele": 184.0,
          "lat": 2.567,
          "lon": -72.633
        },
        {
          "code": 31095030,
          "name": "PTO INIRIDA AUTOMATICA [31095030]",
          "ele": 100.0,
          "lat": 3.867666666667,
          "lon": -67.931694444444
        },
        {
          "code": 800011,
          "name": "EDUARDO FALLA SOLANO",
          "ele": 280.4,
          "lat": 2.152,
          "lon": -74.766
        },
        {
          "code": 48015040,
          "name": "PTO NARIÑO AUTOM  [48015040]",
          "ele": 158.0,
          "lat": -3.780305555556,
          "lon": -70.362638888889
        },
        {
          "code": 32105080,
          "name": "SAN JOSE DEL GUAVIARE AUTOMATICA [32105080]",
          "ele": 165.0,
          "lat": 2.553027777778,
          "lon": -72.647083333333
        },
        {
          "code": 42077020,
          "name": "MITU AUTOMATICA [42077020]",
          "ele": 180.0,
          "lat": 1.259555555556,
          "lon": -70.239111111111
        }
      ]
    },
    {
      "name": "SINCELEJO",
      "ele": 215.82,
      "lat": 9.30674850020716,
      "lon": -75.3977050716558,
      "stations": [
        {
          "code": 28035060,
          "name": "FEDEARROZ AUTOMATICA [28035060]",
          "ele": 184.0,
          "lat": 10.463611111111,
          "lon": -73.248055555556
        },
        {
          "code": 15085050,
          "name": "TOROMANA AUTOMATICA [15085050]",
          "ele": 144.0,
          "lat": 12.083527777778,
          "lon": -71.210944444444
        },
        {
          "code": 25025000,
          "name": "EL DIFICIL AUTOM [25025000]",
          "ele": 120.0,
          "lat": 9.911972222222,
          "lon": -74.085805555555993
        },
        {
          "code": 29015040,
          "name": "CARMEN DE BOLIVAR AUTOMATICA [29015040]",
          "ele": 152.0,
          "lat": 9.71575,
          "lon": -75.106416666667
        },
        {
          "code": 28025502,
          "name": "APTO ALFONSO LOPEZ - AUTOM [28025502]",
          "ele": 138.0,
          "lat": 10.436166666667,
          "lon": -73.247666666667
        },
        {
          "code": 15067200,
          "name": "EL SILENCIO AUTOMATICA [15067200]",
          "ele": 255.0,
          "lat": 10.917083333333,
          "lon": -72.915333333333
        },
        {
          "code": 25025280,
          "name": "EL TESORO IDEAM AUTOMATICA [25025280]",
          "ele": 168.0,
          "lat": 9.357083333333,
          "lon": -75.28925
        },
        {
          "code": 25025350,
          "name": "PUERTA ROJA AUTOMATICA [25025350]",
          "ele": 160.0,
          "lat": 9.316388888889,
          "lon": -75.3875
        },
        {
          "code": 800360,
          "name": "ALFONSO LOPEZ PUMAREJO",
          "ele": 147.2,
          "lat": 10.435,
          "lon": -73.25
        }
      ]
    },
    {
      "name": "MONTERÍA",
      "ele": 16.37,
      "lat": 8.75979434523211,
      "lon": -75.8873443539833,
      "stations": [
        {
          "code": 800280,
          "name": "ERNESTO CORTISSOZ",
          "ele": 29.9,
          "lat": 10.89,
          "lon": -74.781
        },
        {
          "code": 29065130,
          "name": "LA GRAN VIA AUTOMATICA [29065130]",
          "ele": 30.0,
          "lat": 10.85,
          "lon": -74.133333333333
        },
        {
          "code": 28025130,
          "name": "LA LOMA CARBONES DEL CESAR AUTOMATICA [28025130]",
          "ele": 60.0,
          "lat": 9.640611111111,
          "lon": -73.523944444444
        },
        {
          "code": 13035501,
          "name": "APTO LOS GARZONES AUTOM [13035501]",
          "ele": 20.0,
          "lat": 8.825833333333,
          "lon": -75.825138888889
        },
        {
          "code": 800440,
          "name": "COROZAL/LAS BRUJAS",
          "ele": 81.0,
          "lat": 9.333,
          "lon": -75.283
        },
        {
          "code": 15065180,
          "name": "APTO ALM. PADILLA - AUTOM [15065180]",
          "ele": 4.0,
          "lat": 11.529611111111,
          "lon": -72.917666666667
        },
        {
          "code": 29015000,
          "name": "EL GUAMO AUTOM  [29015000]",
          "ele": 75.0,
          "lat": 10.064444444444,
          "lon": -74.852222222222
        },
        {
          "code": 15015120,
          "name": "UNIV TECNOLOGICA DEL MAGDALENA AUTOMATICA [15015120]",
          "ele": 7.0,
          "lat": 11.223055555556,
          "lon": -74.185916666667
        },
        {
          "code": 12015100,
          "name": "PISTA INDIRA AUTOM  [12015100]",
          "ele": 15.0,
          "lat": 7.94075,
          "lon": -76.696166666667
        },
        {
          "code": 25025340,
          "name": "SAN MARCOS AUTOMATICA [25025340]",
          "ele": 31.0,
          "lat": 8.596833333333,
          "lon": -75.142694444444
        },
        {
          "code": 15075501,
          "name": "APTO PTO BOLIVAR AUTO [15075501]",
          "ele": 10.0,
          "lat": 12.224305555556,
          "lon": -71.982888888889
        },
        {
          "code": 29045190,
          "name": "A.E.CORTISSOZ AUTOM   [29045190]",
          "ele": 14.0,
          "lat": 10.917777777778,
          "lon": -74.779722222222
        },
        {
          "code": 800630,
          "name": "LOS GARZONES",
          "ele": 11.0,
          "lat": 8.824,
          "lon": -75.826
        },
        {
          "code": 29035000,
          "name": "SINCERIN [29035000]",
          "ele": 10.0,
          "lat": 10.142583333333,
          "lon": -75.278277777778
        },
        {
          "code": 12015110,
          "name": "CHIGORODO AUTOM   [12015110]",
          "ele": 44.0,
          "lat": 7.671138888889,
          "lon": -76.694055555556
        },
        {
          "code": 15075150,
          "name": "PAICI AUTOMATICA [15075150]",
          "ele": 45.0,
          "lat": 11.594944444444,
          "lon": -72.32575
        },
        {
          "code": 15065190,
          "name": "MONGUI AUTOMATICA [15065190]",
          "ele": 60.0,
          "lat": 11.226777777778,
          "lon": -72.820638888889
        },
        {
          "code": 25025002,
          "name": "LOS ALAMOS AUTOM [25025002]",
          "ele": 25.0,
          "lat": 9.304055555556,
          "lon": -74.273638888889
        },
        {
          "code": 15065501,
          "name": "MINA LA CERREJON - AUTOM [15065501]",
          "ele": 80.0,
          "lat": 11.137583333333,
          "lon": -72.615944444444
        },
        {
          "code": 800350,
          "name": "ALMIRANTE PADILLA",
          "ele": 13.1,
          "lat": 11.526,
          "lon": -72.926
        },
        {
          "code": 800840,
          "name": "ANTONIO ROLDAN BETANCOURT",
          "ele": 14.0,
          "lat": 7.812,
          "lon": -76.716
        },
        {
          "code": 13095010,
          "name": "COVEÑAS AUTOMATICA[13095010]",
          "ele": 1.0,
          "lat": 9.383333333333,
          "lon": -75.666666666667
        },
        {
          "code": 13085050,
          "name": "LORICA  ITA AUTOMATICA [13085050]",
          "ele": 30.0,
          "lat": 9.252722222222,
          "lon": -75.844416666667
        },
        {
          "code": 25017010,
          "name": "MONTELIBANO AUTOMATICA [25017010]",
          "ele": 40.0,
          "lat": 7.987972222222,
          "lon": -75.417333333333
        },
        {
          "code": 26247020,
          "name": "LA COQUERA AUTOM  [26247020]",
          "ele": 49.0,
          "lat": 7.962138888889,
          "lon": -75.196
        },
        {
          "code": 29045000,
          "name": "SABANALARGA AUTOMATICA [29045000]",
          "ele": 100.0,
          "lat": 10.636722222222,
          "lon": -74.918888888889
        },
        {
          "code": 29065000,
          "name": "MEDIA LUNA AUTOM [29065000]",
          "ele": 20.0,
          "lat": 10.510027777778,
          "lon": -74.506666666667
        },
        {
          "code": 29035200,
          "name": "REPELON AUTOM   [29035200]",
          "ele": 10.0,
          "lat": 10.49,
          "lon": -75.126944444444
        },
        {
          "code": 15067220,
          "name": "PTE CARRETERA AUTOM [15067220]",
          "ele": 7.0,
          "lat": 11.510972222222,
          "lon": -72.855944444444
        },
        {
          "code": 25027200,
          "name": "LAS VARAS AUTOM  [25027200]",
          "ele": 40.0,
          "lat": 8.387416666667,
          "lon": -74.563166666667
        },
        {
          "code": 25027020,
          "name": "EL BANCO AUTOMATICA[25027020]",
          "ele": 29.0,
          "lat": 8.992527777778,
          "lon": -73.969444444444
        },
        {
          "code": 15067050,
          "name": "CUESTECITAS AUTOMATICA [15067050]",
          "ele": 76.0,
          "lat": 11.180333333333,
          "lon": -72.553444444444
        },
        {
          "code": 29047070,
          "name": "SAN PEDRITO AUTOMATICA[29047070]",
          "ele": 8.0,
          "lat": 10.268222222222,
          "lon": -74.907861111111
        },
        {
          "code": 15065010,
          "name": "APTO ALM. PADILLA [15065010]",
          "ele": 4.0,
          "lat": 11.529611111111,
          "lon": -72.917666666667
        },
        {
          "code": 29047000,
          "name": "TEBSA BQUILLA AUTOMATICA [29047000]",
          "ele": 6.0,
          "lat": 10.936638888889,
          "lon": -74.759888888889
        },
        {
          "code": 27037010,
          "name": "LA ESPERANZA NECHI  [27037010]",
          "ele": 33.0,
          "lat": 8.030111111111,
          "lon": -74.785555555556
        },
        {
          "code": 13067020,
          "name": "MONTERIA  AUTOMATICA [13067020]",
          "ele": 15.0,
          "lat": 8.751611111111,
          "lon": -75.892416666667
        }
      ]
    },
    {
      "name": "INÍRIDA",
      "ele": 93.76,
      "lat": 3.87209974163615,
      "lon": -67.9234162417424,
      "stations": [
        {
          "code": 803220,
          "name": "JORGE E GONZALEZ TORRES",
          "ele": 184.4,
          "lat": 2.58,
          "lon": -72.639
        },
        {
          "code": 690186,
          "name": "SAN JOSE DEL GUAVIA",
          "ele": 184.0,
          "lat": 2.567,
          "lon": -72.633
        },
        {
          "code": 31095030,
          "name": "PTO INIRIDA AUTOMATICA [31095030]",
          "ele": 100.0,
          "lat": 3.867666666667,
          "lon": -67.931694444444
        },
        {
          "code": 48015040,
          "name": "PTO NARIÑO AUTOM  [48015040]",
          "ele": 158.0,
          "lat": -3.780305555556,
          "lon": -70.362638888889
        },
        {
          "code": 32105080,
          "name": "SAN JOSE DEL GUAVIARE AUTOMATICA [32105080]",
          "ele": 165.0,
          "lat": 2.553027777778,
          "lon": -72.647083333333
        },
        {
          "code": 42077020,
          "name": "MITU AUTOMATICA [42077020]",
          "ele": 180.0,
          "lat": 1.259555555556,
          "lon": -70.239111111111
        }
      ]
    },
    {
      "name": "CALI",
      "ele": 960.39,
      "lat": 3.4262827544158,
      "lon": -76.5242004326088,
      "stations": [
        {
          "code": 802227,
          "name": "SANTA ANA",
          "ele": 908.0,
          "lat": 4.758,
          "lon": -75.956
        },
        {
          "code": 51025080,
          "name": "ALTAQUER AUTOMATICA [51025080]",
          "ele": 1010.0,
          "lat": 1.248333333333,
          "lon": -78.0925
        },
        {
          "code": 26085170,
          "name": "BASE AEREA MFS  [26085170]",
          "ele": 975.0,
          "lat": 3.4545,
          "lon": -76.499722222222
        },
        {
          "code": 23065180,
          "name": "VILLETA AUTOM [23065180]",
          "ele": 878.0,
          "lat": 5.016861111111,
          "lon": -74.470972222222
        },
        {
          "code": 698704,
          "name": "AFWA ASSIGNED",
          "ele": 895.0,
          "lat": 4.217,
          "lon": -74.633
        },
        {
          "code": 802140,
          "name": "PERALES",
          "ele": 949.1,
          "lat": 4.422,
          "lon": -75.133
        },
        {
          "code": 23195230,
          "name": "NEOMUNDO AUTOMATICA [23195230]",
          "ele": 970.0,
          "lat": 7.102611111111,
          "lon": -73.107305555556
        },
        {
          "code": 26075150,
          "name": "A.A.BONILLA AUTOM   [26075150]",
          "ele": 961.0,
          "lat": 3.532991666667,
          "lon": -76.3825
        },
        {
          "code": 23105070,
          "name": "MACEO AUTOMATICA (23105070)",
          "ele": 980.0,
          "lat": 6.571638888889,
          "lon": -74.794722222222
        },
        {
          "code": 26055120,
          "name": "UNIV DEL VALLE  [26055120]",
          "ele": 996.0,
          "lat": 3.378,
          "lon": -76.533888888889
        },
        {
          "code": 26127040,
          "name": "CARTAGO    [26127040]",
          "ele": 937.0,
          "lat": 4.757611111111,
          "lon": -75.89925
        },
        {
          "code": 23105060,
          "name": "VEGACHI AUTOM   [23105060]",
          "ele": 990.0,
          "lat": 6.774111111111,
          "lon": -74.796527777778
        },
        {
          "code": 802590,
          "name": "ALFONSO BONILLA ARAGON INTL",
          "ele": 963.8,
          "lat": 3.543,
          "lon": -76.382
        },
        {
          "code": 26105250,
          "name": "ZARAGOZA AUTOM   [26105250]",
          "ele": 943.0,
          "lat": 4.689777777778,
          "lon": -75.925194444444
        },
        {
          "code": 26177030,
          "name": "LA VIRGINIA AUTOM  [26177030]",
          "ele": 922.0,
          "lat": 4.8925,
          "lon": -75.882694444444
        }
      ]
    },
    {
      "name": "QUIBDÓ",
      "ele": 30.42,
      "lat": 5.69765721835433,
      "lon": -76.6550674371715,
      "stations": [
        {
          "code": 803360,
          "name": "TUMACO/LA FLORIDA",
          "ele": 3.0,
          "lat": 1.817,
          "lon": -78.75
        },
        {
          "code": 55015010,
          "name": "PIE DE PATO AUTOM [55015010]",
          "ele": 40.0,
          "lat": 5.521083333333,
          "lon": -76.973166666667
        },
        {
          "code": 802520,
          "name": "GERARDO TOBAR LOPEZ",
          "ele": 14.6,
          "lat": 3.82,
          "lon": -76.99
        },
        {
          "code": 51025090,
          "name": "GRANJA EL MIRA - AUTOM [51025090]",
          "ele": 16.0,
          "lat": 1.550194444444,
          "lon": -78.695583333333
        },
        {
          "code": 53045040,
          "name": "APTO GUAPI AUTOM  [53045040]",
          "ele": 42.0,
          "lat": 2.574416666667,
          "lon": -77.89475
        },
        {
          "code": 11105020,
          "name": "CARMEN DEL DARIEN AUTOMATICA [11105020]",
          "ele": 18.0,
          "lat": 7.154333333333,
          "lon": -76.977194444444
        },
        {
          "code": 802222,
          "name": "JOSE CELESTINO MUTIS",
          "ele": 24.4,
          "lat": 6.203,
          "lon": -77.395
        },
        {
          "code": 801440,
          "name": "EL CARANO",
          "ele": 62.2,
          "lat": 5.691,
          "lon": -76.641
        },
        {
          "code": 54017040,
          "name": "TADO AUTOM   [54017040]",
          "ele": 95.0,
          "lat": 5.265111111111,
          "lon": -76.56275
        },
        {
          "code": 51039010,
          "name": "TUMACO AUTOMATICA [51039010]",
          "ele": 0.0,
          "lat": 1.819305555556,
          "lon": -78.730277777778
        },
        {
          "code": 11135030,
          "name": "UNGUIA AUTOM   [11135030]",
          "ele": 14.0,
          "lat": 8.036722222222,
          "lon": -77.087861111111
        },
        {
          "code": 803000,
          "name": "GUAPI",
          "ele": 54.0,
          "lat": 2.583,
          "lon": -77.9
        },
        {
          "code": 11037030,
          "name": "LA LOMA PUEBLO NUEVO AUTOMATICA[11037030]",
          "ele": 72.0,
          "lat": 5.584666666667,
          "lon": -76.753277777778
        },
        {
          "code": 51027060,
          "name": "SAN JUAN MIRA AUTOM [51027060]",
          "ele": 2.0,
          "lat": 1.423888888889,
          "lon": -78.670277777778
        },
        {
          "code": 11047040,
          "name": "QUIBDO AUTOMATICA [11047040]",
          "ele": 21.0,
          "lat": 5.697991666667,
          "lon": -76.662258333333
        }
      ]
    },
    {
      "name": "TUNJA",
      "ele": 2855.82,
      "lat": 5.53439151336481,
      "lon": -73.3705444265837,
      "stations": [
        {
          "code": 23125170,
          "name": "SAN CAYETANO AUTOM  [23125170]",
          "ele": 2807.0,
          "lat": 4.516752777778,
          "lon": -74.088222222222
        },
        {
          "code": 35025090,
          "name": "BOSQUE INTERVENIDO   [35025090]",
          "ele": 2944.0,
          "lat": 4.664888888889,
          "lon": -73.846638888889
        },
        {
          "code": 35027510,
          "name": "CALOSTROS BAJO   [35027510]",
          "ele": 2943.0,
          "lat": 4.673777777778,
          "lon": -73.818888888889
        },
        {
          "code": 52055210,
          "name": "BOTANA AUTOM   [52055210]",
          "ele": 2820.0,
          "lat": 1.16,
          "lon": -77.278805555556
        }
      ]
    },
    {
      "name": "POPAYÁN",
      "ele": 1722.66,
      "lat": 2.44800483276533,
      "lon": -76.6146545340209,
      "stations": [
        {
          "code": 803420,
          "name": "ANTONIO NARINO",
          "ele": 1813.9,
          "lat": 1.393,
          "lon": -77.291
        },
        {
          "code": 16055120,
          "name": "AGUAS DE LA VIRGEN AUTOMATICA [16055120]",
          "ele": 1700.0,
          "lat": 8.227694444444,
          "lon": -73.3975
        },
        {
          "code": 21215170,
          "name": "LA MARTINICA AUTOMATICA [21215170]",
          "ele": 1780.0,
          "lat": 4.402,
          "lon": -75.229055555556
        },
        {
          "code": 24025090,
          "name": "MOGOTES AUTOMATICA [24025090]",
          "ele": 1673.0,
          "lat": 6.47,
          "lon": -72.968888888889
        },
        {
          "code": 26185050,
          "name": "STA BARBARA AUTOM  [26185050]",
          "ele": 1680.0,
          "lat": 5.859583333333,
          "lon": -75.556277777778
        },
        {
          "code": 803080,
          "name": "GUILLERMO LEON VALENCIA",
          "ele": 1733.4,
          "lat": 2.454,
          "lon": -76.609
        },
        {
          "code": 53075020,
          "name": "EL DIVISO AUTOMATICA [53075020]",
          "ele": 1750.0,
          "lat": 2.311416666667,
          "lon": -77.258777777778
        },
        {
          "code": 26135290,
          "name": "MARSELLA AUTOM   [26135290]",
          "ele": 1659.0,
          "lat": 4.929583333333,
          "lon": -75.738388888889
        },
        {
          "code": 26145090,
          "name": "STA EMILIA AUTOM  [26145090]",
          "ele": 1748.0,
          "lat": 5.207472222222,
          "lon": -75.902944444444
        },
        {
          "code": 21055070,
          "name": "INZA AUTOMATICA [21055070]",
          "ele": 1800.0,
          "lat": 2.548194444444,
          "lon": -76.063944444444
        },
        {
          "code": 26035100,
          "name": "HDA SUECIA AUTOMATICA [26035100]",
          "ele": 1755.0,
          "lat": 2.479555555556,
          "lon": -76.82775
        },
        {
          "code": 52015050,
          "name": "BALBOA AUTOMATICA [52015050]",
          "ele": 1700.0,
          "lat": 2.032777777778,
          "lon": -77.221666666667
        },
        {
          "code": 26207080,
          "name": "BOLOMBOLO AUTOM   [26207080]",
          "ele": 1750.0,
          "lat": 5.965944444444,
          "lon": -75.841472222222
        },
        {
          "code": 35027001,
          "name": "PLAZA DE FERIAS AUTOMATICA[3502512]",
          "ele": 1670.0,
          "lat": 4.403388888889,
          "lon": -73.940555555556
        },
        {
          "code": 23050420,
          "name": "ARGELIA ANTIOQUIA   [23050420]",
          "ele": 1740.0,
          "lat": 5.731138888889,
          "lon": -75.138527777778
        }
      ]
    },
    {
      "name": "FLORENCIA",
      "ele": 323.43,
      "lat": 1.62437259256993,
      "lon": -75.6221694878188,
      "stations": [
        {
          "code": 800970,
          "name": "CAMILO DAZA",
          "ele": 334.1,
          "lat": 7.928,
          "lon": -72.512
        },
        {
          "code": 803540,
          "name": "FLORENCIA/CAPITOLIO",
          "ele": 244.0,
          "lat": 1.6,
          "lon": -75.533
        },
        {
          "code": 16015110,
          "name": "UNIV FRANCISO DE PAULA AUTOMATICA [16015110]",
          "ele": 311.0,
          "lat": 7.898777777778,
          "lon": -72.487166666667
        },
        {
          "code": 26015030,
          "name": "PNN PURACE AUTOM  [26015030]",
          "ele": 368.0,
          "lat": 2.356848888889,
          "lon": -76.403543888889
        },
        {
          "code": 29045150,
          "name": "SAIZA AUTOMATICA [29045150]",
          "ele": 287.0,
          "lat": 7.746027777778,
          "lon": -76.4325
        },
        {
          "code": 21235030,
          "name": "UNIV DE CUNDINAMARCA  AUTOMATICA [21235030]",
          "ele": 309.0,
          "lat": 4.305333333333,
          "lon": -74.808111111111
        },
        {
          "code": 21185090,
          "name": "NATAIMA AUTOM   [21185090]",
          "ele": 393.0,
          "lat": 4.188138888889,
          "lon": -74.960472222222
        },
        {
          "code": 21137050,
          "name": "ANGOSTURA RIO   [21137050]",
          "ele": 345.0,
          "lat": 3.443194444444,
          "lon": -75.118805555556
        },
        {
          "code": 802190,
          "name": "GIRARDOT/SANTIAGO VILLA",
          "ele": 286.0,
          "lat": 4.283,
          "lon": -74.8
        },
        {
          "code": 26055100,
          "name": "FARALLONES AUTOM   [26055100]",
          "ele": 227.0,
          "lat": 3.416055555556,
          "lon": -76.6515
        },
        {
          "code": 801005,
          "name": "MELGAR AB",
          "ele": 313.3,
          "lat": 4.216,
          "lon": -74.635
        },
        {
          "code": 21255160,
          "name": "HDA PAJONALES   [21255160]",
          "ele": 277.0,
          "lat": 4.760722222222,
          "lon": -74.83425
        },
        {
          "code": 804470,
          "name": "SAN ANTONIO DEL TACHIRA",
          "ele": 399.9,
          "lat": 7.841,
          "lon": -72.44
        },
        {
          "code": 16015501,
          "name": "APTO CAMILO DAZA AUTOM [16015501]",
          "ele": 313.0,
          "lat": 7.931611111111,
          "lon": -72.51125
        },
        {
          "code": 52077010,
          "name": "PTE PUSMEO AUTOM  [52077010]",
          "ele": 380.0,
          "lat": 1.624055555556,
          "lon": -77.478916666667
        },
        {
          "code": 44035050,
          "name": "MACAGUAL AUTOMATICA [44035050]",
          "ele": 280.0,
          "lat": 1.499722222222,
          "lon": -75.661
        },
        {
          "code": 21137010,
          "name": "PURIFICACION AUTOM   [21137010]",
          "ele": 306.0,
          "lat": 3.849527777778,
          "lon": -74.935777777778
        },
        {
          "code": 35217060,
          "name": "PLAYON EL   [35217060]",
          "ele": 271.0,
          "lat": 5.5405,
          "lon": -72.231722222222
        }
      ]
    },
    {
      "name": "PASTO",
      "ele": 2556.29,
      "lat": 1.21371002531483,
      "lon": -77.2847466015938,
      "stations": [
        {
          "code": 21206790,
          "name": "HDA STA ANA AUTOM [21206790]",
          "ele": 2572.0,
          "lat": 5.0905,
          "lon": -73.88125
        },
        {
          "code": 24035430,
          "name": "TUNGUAVITA AUTOMATICA [24035430]",
          "ele": 2470.0,
          "lat": 5.745916666667,
          "lon": -73.116361111111
        },
        {
          "code": 802223,
          "name": "GUAYMARAL",
          "ele": 2557.3,
          "lat": 4.812,
          "lon": -74.065
        },
        {
          "code": 24015110,
          "name": "LA BOYERA AUTOMATICA [24015110]",
          "ele": 2610.0,
          "lat": 5.303805555556,
          "lon": -73.85175
        },
        {
          "code": 24035360,
          "name": "SOCHA AUTOMATICA [24035360]",
          "ele": 2503.0,
          "lat": 5.985416666667,
          "lon": -72.997027777778
        },
        {
          "code": 24035410,
          "name": "SOGAMOSO AUTOMATICA [24035410]",
          "ele": 2495.0,
          "lat": 5.753333333333,
          "lon": -72.911152777778
        },
        {
          "code": 21205012,
          "name": "UNIV NACIONAL AUTOMATICA [21205012]",
          "ele": 2556.0,
          "lat": 4.638083333333,
          "lon": -74.089083333333
        },
        {
          "code": 21205791,
          "name": "APTO EL DORADO AUTOMATICA [21205791]",
          "ele": 2547.0,
          "lat": 4.705583333333,
          "lon": -74.150666666667
        },
        {
          "code": 21215190,
          "name": "CAJAMARCA AUTOM   [21215190]",
          "ele": 2530.0,
          "lat": 4.435666666667,
          "lon": -75.500361111111
        },
        {
          "code": 21206960,
          "name": "IDEAM BOGOTA AUTOMATICA [21206960]",
          "ele": 2646.0,
          "lat": 4.6,
          "lon": -74.066666666667
        },
        {
          "code": 21206990,
          "name": "TIBAITATA AUTOMATICA [21206990]",
          "ele": 2543.0,
          "lat": 4.691416666667,
          "lon": -74.209
        },
        {
          "code": 21206600,
          "name": "NUEVA GENERACION AUTOMATICA[21206600]",
          "ele": 2590.0,
          "lat": 4.782222222222,
          "lon": -74.094333333333
        },
        {
          "code": 802220,
          "name": "ELDORADO INTL",
          "ele": 2548.4,
          "lat": 4.702,
          "lon": -74.147
        },
        {
          "code": 52045080,
          "name": "UNIV DE NARIÑO  [52045080]",
          "ele": 2626.0,
          "lat": 1.225111111111,
          "lon": -77.283388888889
        },
        {
          "code": 27015320,
          "name": "ARAGON AUTOM   [27015320]",
          "ele": 2600.0,
          "lat": 6.534,
          "lon": -75.827
        },
        {
          "code": 21209920,
          "name": "STA ROSITA AUTOM  [21209920]",
          "ele": 2618.0,
          "lat": 5.19225,
          "lon": -73.779055555556
        }
      ]
    },
    {
      "name": "SANTA MARTA",
      "ele": 8.09,
      "lat": 11.24568,
      "lon": -74.186383,
      "stations": [
        {
          "code": 800280,
          "name": "ERNESTO CORTISSOZ",
          "ele": 29.9,
          "lat": 10.89,
          "lon": -74.781
        },
        {
          "code": 29065130,
          "name": "LA GRAN VIA AUTOMATICA [29065130]",
          "ele": 30.0,
          "lat": 10.85,
          "lon": -74.133333333333
        },
        {
          "code": 28025130,
          "name": "LA LOMA CARBONES DEL CESAR AUTOMATICA [28025130]",
          "ele": 60.0,
          "lat": 9.640611111111,
          "lon": -73.523944444444
        },
        {
          "code": 13035501,
          "name": "APTO LOS GARZONES AUTOM [13035501]",
          "ele": 20.0,
          "lat": 8.825833333333,
          "lon": -75.825138888889
        },
        {
          "code": 800440,
          "name": "COROZAL/LAS BRUJAS",
          "ele": 81.0,
          "lat": 9.333,
          "lon": -75.283
        },
        {
          "code": 15065180,
          "name": "APTO ALM. PADILLA - AUTOM [15065180]",
          "ele": 4.0,
          "lat": 11.529611111111,
          "lon": -72.917666666667
        },
        {
          "code": 29015000,
          "name": "EL GUAMO AUTOM  [29015000]",
          "ele": 75.0,
          "lat": 10.064444444444,
          "lon": -74.852222222222
        },
        {
          "code": 15015120,
          "name": "UNIV TECNOLOGICA DEL MAGDALENA AUTOMATICA [15015120]",
          "ele": 7.0,
          "lat": 11.223055555556,
          "lon": -74.185916666667
        },
        {
          "code": 12015100,
          "name": "PISTA INDIRA AUTOM  [12015100]",
          "ele": 15.0,
          "lat": 7.94075,
          "lon": -76.696166666667
        },
        {
          "code": 25025340,
          "name": "SAN MARCOS AUTOMATICA [25025340]",
          "ele": 31.0,
          "lat": 8.596833333333,
          "lon": -75.142694444444
        },
        {
          "code": 15075501,
          "name": "APTO PTO BOLIVAR AUTO [15075501]",
          "ele": 10.0,
          "lat": 12.224305555556,
          "lon": -71.982888888889
        },
        {
          "code": 29045190,
          "name": "A.E.CORTISSOZ AUTOM   [29045190]",
          "ele": 14.0,
          "lat": 10.917777777778,
          "lon": -74.779722222222
        },
        {
          "code": 800630,
          "name": "LOS GARZONES",
          "ele": 11.0,
          "lat": 8.824,
          "lon": -75.826
        },
        {
          "code": 29035000,
          "name": "SINCERIN [29035000]",
          "ele": 10.0,
          "lat": 10.142583333333,
          "lon": -75.278277777778
        },
        {
          "code": 12015110,
          "name": "CHIGORODO AUTOM   [12015110]",
          "ele": 44.0,
          "lat": 7.671138888889,
          "lon": -76.694055555556
        },
        {
          "code": 15075150,
          "name": "PAICI AUTOMATICA [15075150]",
          "ele": 45.0,
          "lat": 11.594944444444,
          "lon": -72.32575
        },
        {
          "code": 15065190,
          "name": "MONGUI AUTOMATICA [15065190]",
          "ele": 60.0,
          "lat": 11.226777777778,
          "lon": -72.820638888889
        },
        {
          "code": 25025002,
          "name": "LOS ALAMOS AUTOM [25025002]",
          "ele": 25.0,
          "lat": 9.304055555556,
          "lon": -74.273638888889
        },
        {
          "code": 15065501,
          "name": "MINA LA CERREJON - AUTOM [15065501]",
          "ele": 80.0,
          "lat": 11.137583333333,
          "lon": -72.615944444444
        },
        {
          "code": 800350,
          "name": "ALMIRANTE PADILLA",
          "ele": 13.1,
          "lat": 11.526,
          "lon": -72.926
        },
        {
          "code": 800840,
          "name": "ANTONIO ROLDAN BETANCOURT",
          "ele": 14.0,
          "lat": 7.812,
          "lon": -76.716
        },
        {
          "code": 13095010,
          "name": "COVEÑAS AUTOMATICA[13095010]",
          "ele": 1.0,
          "lat": 9.383333333333,
          "lon": -75.666666666667
        },
        {
          "code": 13085050,
          "name": "LORICA  ITA AUTOMATICA [13085050]",
          "ele": 30.0,
          "lat": 9.252722222222,
          "lon": -75.844416666667
        },
        {
          "code": 25017010,
          "name": "MONTELIBANO AUTOMATICA [25017010]",
          "ele": 40.0,
          "lat": 7.987972222222,
          "lon": -75.417333333333
        },
        {
          "code": 26247020,
          "name": "LA COQUERA AUTOM  [26247020]",
          "ele": 49.0,
          "lat": 7.962138888889,
          "lon": -75.196
        },
        {
          "code": 29045000,
          "name": "SABANALARGA AUTOMATICA [29045000]",
          "ele": 100.0,
          "lat": 10.636722222222,
          "lon": -74.918888888889
        },
        {
          "code": 29065000,
          "name": "MEDIA LUNA AUTOM [29065000]",
          "ele": 20.0,
          "lat": 10.510027777778,
          "lon": -74.506666666667
        },
        {
          "code": 29035200,
          "name": "REPELON AUTOM   [29035200]",
          "ele": 10.0,
          "lat": 10.49,
          "lon": -75.126944444444
        },
        {
          "code": 15067220,
          "name": "PTE CARRETERA AUTOM [15067220]",
          "ele": 7.0,
          "lat": 11.510972222222,
          "lon": -72.855944444444
        },
        {
          "code": 25027200,
          "name": "LAS VARAS AUTOM  [25027200]",
          "ele": 40.0,
          "lat": 8.387416666667,
          "lon": -74.563166666667
        },
        {
          "code": 25027020,
          "name": "EL BANCO AUTOMATICA[25027020]",
          "ele": 29.0,
          "lat": 8.992527777778,
          "lon": -73.969444444444
        },
        {
          "code": 15067050,
          "name": "CUESTECITAS AUTOMATICA [15067050]",
          "ele": 76.0,
          "lat": 11.180333333333,
          "lon": -72.553444444444
        },
        {
          "code": 29047070,
          "name": "SAN PEDRITO AUTOMATICA[29047070]",
          "ele": 8.0,
          "lat": 10.268222222222,
          "lon": -74.907861111111
        },
        {
          "code": 15065010,
          "name": "APTO ALM. PADILLA [15065010]",
          "ele": 4.0,
          "lat": 11.529611111111,
          "lon": -72.917666666667
        },
        {
          "code": 29047000,
          "name": "TEBSA BQUILLA AUTOMATICA [29047000]",
          "ele": 6.0,
          "lat": 10.936638888889,
          "lon": -74.759888888889
        },
        {
          "code": 27037010,
          "name": "LA ESPERANZA NECHI  [27037010]",
          "ele": 33.0,
          "lat": 8.030111111111,
          "lon": -74.785555555556
        },
        {
          "code": 13067020,
          "name": "MONTERIA  AUTOMATICA [13067020]",
          "ele": 15.0,
          "lat": 8.751611111111,
          "lon": -75.892416666667
        }
      ]
    },
    {
      "name": "VALLEDUPAR",
      "ele": 174.88,
      "lat": 10.4811574128405,
      "lon": -73.2488861012257,
      "stations": [
        {
          "code": 800440,
          "name": "COROZAL/LAS BRUJAS",
          "ele": 81.0,
          "lat": 9.333,
          "lon": -75.283
        },
        {
          "code": 28035060,
          "name": "FEDEARROZ AUTOMATICA [28035060]",
          "ele": 184.0,
          "lat": 10.463611111111,
          "lon": -73.248055555556
        },
        {
          "code": 15085050,
          "name": "TOROMANA AUTOMATICA [15085050]",
          "ele": 144.0,
          "lat": 12.083527777778,
          "lon": -71.210944444444
        },
        {
          "code": 29015000,
          "name": "EL GUAMO AUTOM  [29015000]",
          "ele": 75.0,
          "lat": 10.064444444444,
          "lon": -74.852222222222
        },
        {
          "code": 25025000,
          "name": "EL DIFICIL AUTOM [25025000]",
          "ele": 120.0,
          "lat": 9.911972222222,
          "lon": -74.085805555555993
        },
        {
          "code": 15065501,
          "name": "MINA LA CERREJON - AUTOM [15065501]",
          "ele": 80.0,
          "lat": 11.137583333333,
          "lon": -72.615944444444
        },
        {
          "code": 29015040,
          "name": "CARMEN DE BOLIVAR AUTOMATICA [29015040]",
          "ele": 152.0,
          "lat": 9.71575,
          "lon": -75.106416666667
        },
        {
          "code": 28025502,
          "name": "APTO ALFONSO LOPEZ - AUTOM [28025502]",
          "ele": 138.0,
          "lat": 10.436166666667,
          "lon": -73.247666666667
        },
        {
          "code": 29045000,
          "name": "SABANALARGA AUTOMATICA [29045000]",
          "ele": 100.0,
          "lat": 10.636722222222,
          "lon": -74.918888888889
        },
        {
          "code": 15067200,
          "name": "EL SILENCIO AUTOMATICA [15067200]",
          "ele": 255.0,
          "lat": 10.917083333333,
          "lon": -72.915333333333
        },
        {
          "code": 25025280,
          "name": "EL TESORO IDEAM AUTOMATICA [25025280]",
          "ele": 168.0,
          "lat": 9.357083333333,
          "lon": -75.28925
        },
        {
          "code": 25025350,
          "name": "PUERTA ROJA AUTOMATICA [25025350]",
          "ele": 160.0,
          "lat": 9.316388888889,
          "lon": -75.3875
        },
        {
          "code": 800360,
          "name": "ALFONSO LOPEZ PUMAREJO",
          "ele": 147.2,
          "lat": 10.435,
          "lon": -73.25
        },
        {
          "code": 15067050,
          "name": "CUESTECITAS AUTOMATICA [15067050]",
          "ele": 76.0,
          "lat": 11.180333333333,
          "lon": -72.553444444444
        }
      ]
    },
    {
      "name": "MEDELLÍN",
      "ele": 1469.15,
      "lat": 6.25128995462448,
      "lon": -75.5759735041668,
      "stations": [
        {
          "code": 27015330,
          "name": "OLAYA HERRERA - AUTOM (27015330)",
          "ele": 1490.0,
          "lat": 6.220611111111,
          "lon": -75.588980555556
        },
        {
          "code": 800770,
          "name": "OCANA/AGUAS CLARAS",
          "ele": 1435.0,
          "lat": 8.317,
          "lon": -73.367
        },
        {
          "code": 801100,
          "name": "OLAYA HERRERA",
          "ele": 1505.7,
          "lat": 6.22,
          "lon": -75.591
        },
        {
          "code": 26125290,
          "name": "ARMENIA AUTOM   [26125290]",
          "ele": 1485.0,
          "lat": 4.531583333333,
          "lon": -75.690694444444
        },
        {
          "code": 52035040,
          "name": "VIENTO LIBRE AUTOM  [52035040]",
          "ele": 1400.0,
          "lat": 1.6185,
          "lon": -77.343611111111
        },
        {
          "code": 23195190,
          "name": "SAN ANTONIO SANTANDER AUTOMATICA [23195190]",
          "ele": 1480.0,
          "lat": 7.099527777778,
          "lon": -73.066194444444
        },
        {
          "code": 27015310,
          "name": "METROMEDELLIN    [27015310]",
          "ele": 1440.0,
          "lat": 6.32975,
          "lon": -75.552111111111
        },
        {
          "code": 21015060,
          "name": "MARENGO  AUTOMATICA [21015060]",
          "ele": 1550.0,
          "lat": 2.221111111111,
          "lon": -76.118888888889
        },
        {
          "code": 35085060,
          "name": "ZETAQUIRA AUTOMATICA [35085060]",
          "ele": 1436.0,
          "lat": 5.294944444444,
          "lon": -73.169944444444
        },
        {
          "code": 21217180,
          "name": "MONTEZUMA [21217180]",
          "ele": 1450.0,
          "lat": 4.482055555556,
          "lon": -75.286055555556
        }
      ]
    },
    {
      "name": "ARAUCA",
      "ele": 129.0,
      "lat": 7.08993207472309,
      "lon": -70.759887688876,
      "stations": [
        {
          "code": 800990,
          "name": "SANTIAGO PEREZ",
          "ele": 128.0,
          "lat": 7.069,
          "lon": -70.737
        },
        {
          "code": 802410,
          "name": "LAS GAVIOTAS",
          "ele": 171.0,
          "lat": 4.55,
          "lon": -70.917
        },
        {
          "code": 801390,
          "name": "PUERTO CARRENO",
          "ele": 53.9,
          "lat": 6.185,
          "lon": -67.493
        },
        {
          "code": 35185010,
          "name": "LA PALOMERA AUTOMATICA [35185010]",
          "ele": 188.0,
          "lat": 4.260361111111,
          "lon": -72.564472222222
        },
        {
          "code": 36015020,
          "name": "EL DIAMANTE AUTOMATICA [36015020]",
          "ele": 160.0,
          "lat": 5.816194444444,
          "lon": -71.419833333333
        },
        {
          "code": 37055010,
          "name": "APTO ARAUCA [37055010]",
          "ele": 128.0,
          "lat": 7.069444444444,
          "lon": -70.738055555556
        },
        {
          "code": 804570,
          "name": "CASIQUE ARAMARE",
          "ele": 74.7,
          "lat": 5.62,
          "lon": -67.606
        },
        {
          "code": 37057020,
          "name": "ALCARAVAN  AUT [37057020]",
          "ele": 162.0,
          "lat": 7.035,
          "lon": -71.416388888889
        },
        {
          "code": 802225,
          "name": "LOS COLONIZADORES",
          "ele": 213.0,
          "lat": 6.95,
          "lon": -71.85
        },
        {
          "code": 35017020,
          "name": "PTE LLERAS AUTOMATICA [35017020]",
          "ele": 177.0,
          "lat": 4.103019444444,
          "lon": -72.936383333333
        }
      ]
    },
    {
      "name": "MITU",
      "ele": 171.72,
      "lat": 1.26443671261389,
      "lon": -70.2254562360183,
      "stations": [
        {
          "code": 803610,
          "name": "FABIO ALBERTO LEON BENTLEY",
          "ele": 207.3,
          "lat": 1.254,
          "lon": -70.234
        },
        {
          "code": 803220,
          "name": "JORGE E GONZALEZ TORRES",
          "ele": 184.4,
          "lat": 2.58,
          "lon": -72.639
        },
        {
          "code": 803720,
          "name": "TRES DE MAYO",
          "ele": 248.4,
          "lat": 0.505,
          "lon": -76.501
        },
        {
          "code": 47035030,
          "name": "PNN LA PAYA AUTOMATICA [47035030]",
          "ele": 194.0,
          "lat": 0.173722222222,
          "lon": -74.898138888889
        },
        {
          "code": 690186,
          "name": "SAN JOSE DEL GUAVIA",
          "ele": 184.0,
          "lat": 2.567,
          "lon": -72.633
        },
        {
          "code": 31095030,
          "name": "PTO INIRIDA AUTOMATICA [31095030]",
          "ele": 100.0,
          "lat": 3.867666666667,
          "lon": -67.931694444444
        },
        {
          "code": 48015040,
          "name": "PTO NARIÑO AUTOM  [48015040]",
          "ele": 158.0,
          "lat": -3.780305555556,
          "lon": -70.362638888889
        },
        {
          "code": 32105080,
          "name": "SAN JOSE DEL GUAVIARE AUTOMATICA [32105080]",
          "ele": 165.0,
          "lat": 2.553027777778,
          "lon": -72.647083333333
        },
        {
          "code": 42077020,
          "name": "MITU AUTOMATICA [42077020]",
          "ele": 180.0,
          "lat": 1.259555555556,
          "lon": -70.239111111111
        }
      ]
    },
    {
      "name": "MOCOA",
      "ele": 648.63,
      "lat": 1.1748987346326,
      "lon": -76.642051689641,
      "stations": [
        {
          "code": 32067030,
          "name": "PTO ANGOSTURAS AUTOM [32067030]",
          "ele": 745.0,
          "lat": 3.792666666667,
          "lon": -73.922472222222
        },
        {
          "code": 23125160,
          "name": "SAN PABLO DE BORBUR AUTOM [23125160]",
          "ele": 742.0,
          "lat": 5.647027777778,
          "lon": -74.071305555556
        },
        {
          "code": 21115180,
          "name": "HDA MANILA AUTOMATICA [21115180]",
          "ele": 600.0,
          "lat": 3.133055555556,
          "lon": -75.081527777778
        },
        {
          "code": 44037040,
          "name": "EL ROSARIO AUTOMATICA [44037040]",
          "ele": 600.0,
          "lat": 1.72525,
          "lon": -75.666388888889
        },
        {
          "code": 800890,
          "name": "OTU",
          "ele": 609.6,
          "lat": 7.01,
          "lon": -74.715
        },
        {
          "code": 44035040,
          "name": "FLORENCIA-DESLIZAMIENTOS AUTOMATICA [44035040]",
          "ele": 600.0,
          "lat": 1.733,
          "lon": -75.645027777778
        },
        {
          "code": 52025080,
          "name": "ESTRECHO PATIA   [52025080]",
          "ele": 720.0,
          "lat": 1.962777777778,
          "lon": -77.120277777778
        },
        {
          "code": 21047010,
          "name": "PTE BALSEADERO AUTOMATICA [21047010]",
          "ele": 688.0,
          "lat": 2.232361111111,
          "lon": -75.648555555556
        },
        {
          "code": 44015060,
          "name": "ACDTO MOCOA AUTOM  [44015060]",
          "ele": 650.0,
          "lat": 1.157333333333,
          "lon": -76.651833333333
        },
        {
          "code": 23067060,
          "name": "TOBIA [23067060]",
          "ele": 620.0,
          "lat": 5.125305555556,
          "lon": -74.447055555556
        },
        {
          "code": 35035110,
          "name": "SALINAS DE UPIN AUTOMATICA [35035110]",
          "ele": 690.0,
          "lat": 4.273861111111,
          "lon": -73.586861111111
        },
        {
          "code": 21087080,
          "name": "HDA VENECIA AUTOMATICA [21087080]",
          "ele": 575.0,
          "lat": 2.643805555556,
          "lon": -75.544305555556
        },
        {
          "code": 23197690,
          "name": "PALOGORDO AUTOMATICA [23197690]",
          "ele": 690.0,
          "lat": 6.969166666667,
          "lon": -73.130555555556
        }
      ]
    },
    {
      "name": "YOPAL",
      "ele": 357.77,
      "lat": 5.34929143474913,
      "lon": -72.4030380177448,
      "stations": [
        {
          "code": 800970,
          "name": "CAMILO DAZA",
          "ele": 334.1,
          "lat": 7.928,
          "lon": -72.512
        },
        {
          "code": 16015110,
          "name": "UNIV FRANCISO DE PAULA AUTOMATICA [16015110]",
          "ele": 311.0,
          "lat": 7.898777777778,
          "lon": -72.487166666667
        },
        {
          "code": 802340,
          "name": "VANGUARDIA",
          "ele": 424.9,
          "lat": 4.168,
          "lon": -73.614
        },
        {
          "code": 803150,
          "name": "BENITO SALAS",
          "ele": 446.2,
          "lat": 2.95,
          "lon": -75.294
        },
        {
          "code": 26015030,
          "name": "PNN PURACE AUTOM  [26015030]",
          "ele": 368.0,
          "lat": 2.356848888889,
          "lon": -76.403543888889
        },
        {
          "code": 29045150,
          "name": "SAIZA AUTOMATICA [29045150]",
          "ele": 287.0,
          "lat": 7.746027777778,
          "lon": -76.4325
        },
        {
          "code": 21235030,
          "name": "UNIV DE CUNDINAMARCA  AUTOMATICA [21235030]",
          "ele": 309.0,
          "lat": 4.305333333333,
          "lon": -74.808111111111
        },
        {
          "code": 21185090,
          "name": "NATAIMA AUTOM   [21185090]",
          "ele": 393.0,
          "lat": 4.188138888889,
          "lon": -74.960472222222
        },
        {
          "code": 21137050,
          "name": "ANGOSTURA RIO   [21137050]",
          "ele": 345.0,
          "lat": 3.443194444444,
          "lon": -75.118805555556
        },
        {
          "code": 802190,
          "name": "GIRARDOT/SANTIAGO VILLA",
          "ele": 286.0,
          "lat": 4.283,
          "lon": -74.8
        },
        {
          "code": 801005,
          "name": "MELGAR AB",
          "ele": 313.3,
          "lat": 4.216,
          "lon": -74.635
        },
        {
          "code": 21115020,
          "name": "APTO BENITO SALAS [21115020]",
          "ele": 439.0,
          "lat": 2.94875,
          "lon": -75.293055555556
        },
        {
          "code": 35035100,
          "name": "ICA VILLAVICENCIO AUTOMATICA [35035100]",
          "ele": 444.0,
          "lat": 4.137388888889,
          "lon": -73.625
        },
        {
          "code": 21255160,
          "name": "HDA PAJONALES   [21255160]",
          "ele": 277.0,
          "lat": 4.760722222222,
          "lon": -74.83425
        },
        {
          "code": 804470,
          "name": "SAN ANTONIO DEL TACHIRA",
          "ele": 399.9,
          "lat": 7.841,
          "lon": -72.44
        },
        {
          "code": 16015501,
          "name": "APTO CAMILO DAZA AUTOM [16015501]",
          "ele": 313.0,
          "lat": 7.931611111111,
          "lon": -72.51125
        },
        {
          "code": 52077010,
          "name": "PTE PUSMEO AUTOM  [52077010]",
          "ele": 380.0,
          "lat": 1.624055555556,
          "lon": -77.478916666667
        },
        {
          "code": 44035050,
          "name": "MACAGUAL AUTOMATICA [44035050]",
          "ele": 280.0,
          "lat": 1.499722222222,
          "lon": -75.661
        },
        {
          "code": 21137010,
          "name": "PURIFICACION AUTOM   [21137010]",
          "ele": 306.0,
          "lat": 3.849527777778,
          "lon": -74.935777777778
        },
        {
          "code": 21097070,
          "name": "PTE SANTANDER AUTOM [21097070]",
          "ele": 431.0,
          "lat": 2.942611111111,
          "lon": -75.308527777778
        },
        {
          "code": 35217060,
          "name": "PLAYON EL   [35217060]",
          "ele": 271.0,
          "lat": 5.5405,
          "lon": -72.231722222222
        }
      ]
    },
    {
      "name": "MANIZALES",
      "ele": 2131.76,
      "lat": 5.06215297270668,
      "lon": -75.4956207208922,
      "stations": [
        {
          "code": 21115170,
          "name": "LA PLATA AUTOMATICA [21115170]",
          "ele": 2101.0,
          "lat": 2.759138888889,
          "lon": -75.074555555556
        },
        {
          "code": 23085270,
          "name": "A.J.M. CORDOVA   [23085270]",
          "ele": 2157.0,
          "lat": 6.168666666667,
          "lon": -75.425916666667
        },
        {
          "code": 801490,
          "name": "LA NUBIA",
          "ele": 2094.3,
          "lat": 5.03,
          "lon": -75.465
        },
        {
          "code": 26155230,
          "name": "EMAS AUTOM   [26155230]",
          "ele": 2211.0,
          "lat": 5.08525,
          "lon": -75.507138888889
        },
        {
          "code": 21195160,
          "name": "SUBIA AUTOMATICA [21195160]",
          "ele": 2075.0,
          "lat": 4.476611111111,
          "lon": -74.383888888889
        },
        {
          "code": 16015130,
          "name": "ALCALDIA DE HERRAN AUTOMATICA [16015130]",
          "ele": 2040.0,
          "lat": 7.506722222222,
          "lon": -72.485361111111
        },
        {
          "code": 801120,
          "name": "JOSE MARIA CORDOVA",
          "ele": 2142.1,
          "lat": 6.165,
          "lon": -75.423
        },
        {
          "code": 23085260,
          "name": "LA SELVA AUTOM  [23085260]",
          "ele": 2125.0,
          "lat": 6.131916666667,
          "lon": -75.414555555556
        }
      ]
    }
  ]
}